{"type":"FeatureCollection","features":[{"type":"Feature","geometry":{"type":"Point","coordinates":[-55.82416560911666,52.39834062617137]},"properties":{"PropertyNameEN":"Port Hope Simpson (Deep Fox and Foxtrot)","OperatorOwnersEN":"Search Minerals Inc.","ProvincesEN":"Newfoundland and Labrador","CommoditiesEN":"Rare earth elements","DevelopmentStageEN":"Advanced project","ActivityStatusEN":"Active","OperationGroupEN":"Advanced exploration project","Website":"https://searchminerals.ca/","name":"Port Hope Simpson (Deep Fox and Foxtrot)"}},{"type":"Feature","geometry":{"type":"Point","coordinates":[-56.08699568613847,49.91501026546344]},"properties":{"PropertyNameEN":"Green Bay Copper-Gold (Ming)","OperatorOwnersEN":"FireFly Metals Ltd.","ProvincesEN":"Newfoundland and Labrador","CommoditiesEN":"Copper, gold, silver","DevelopmentStageEN":"Advanced project","ActivityStatusEN":"Active","OperationGroupEN":"Advanced exploration project","Website":"https://fireflymetals.com.au/","name":"Green Bay Copper-Gold (Ming)"}},{"type":"Feature","geometry":{"type":"Point","coordinates":[-56.13439568807716,48.37581002648629]},"properties":{"PropertyNameEN":"Great Burnt","OperatorOwnersEN":"Benton Resources Inc.","ProvincesEN":"Newfoundland and Labrador","CommoditiesEN":"Copper, gold","DevelopmentStageEN":"Advanced project","ActivityStatusEN":"Active","OperationGroupEN":"Advanced exploration project","Website":"https://www.bentonresources.ca/","name":"Great Burnt"}},{"type":"Feature","geometry":{"type":"Point","coordinates":[-56.85596095114177,48.82902809458228]},"properties":{"PropertyNameEN":"Buchans","OperatorOwnersEN":"Canterra Minerals Corporation","ProvincesEN":"Newfoundland and Labrador","CommoditiesEN":"Zinc, lead, copper, silver, gold","DevelopmentStageEN":"Advanced project","ActivityStatusEN":"Active","OperationGroupEN":"Advanced exploration project","Website":"https://canterraminerals.com/","name":"Buchans"}},{"type":"Feature","geometry":{"type":"Point","coordinates":[-59.9839972632871,54.58401088816483]},"properties":{"PropertyNameEN":"Michelin","OperatorOwnersEN":"Paladin Energy Limited","ProvincesEN":"Newfoundland and Labrador","CommoditiesEN":"Uranium","DevelopmentStageEN":"Advanced project","ActivityStatusEN":"Active","OperationGroupEN":"Advanced exploration project","Website":"https://www.paladinenergy.com.au/","name":"Michelin"}},{"type":"Feature","geometry":{"type":"Point","coordinates":[-66.93854985553641,52.821770512568335]},"properties":{"PropertyNameEN":"Kamistiatusset (Kami)","OperatorOwnersEN":"The Kami Iron Mine Partnership","ProvincesEN":"Newfoundland and Labrador","CommoditiesEN":"High-purity iron ore","DevelopmentStageEN":"Advanced project","ActivityStatusEN":"Active","OperationGroupEN":"Advanced exploration project","Website":"https://www.championiron.com","name":"Kamistiatusset (Kami)"}},{"type":"Feature","geometry":{"type":"Point","coordinates":[-66.99619988955018,52.990310534418]},"properties":{"PropertyNameEN":"Lac Virot","OperatorOwnersEN":"Red Paramount Iron Ltd.","ProvincesEN":"Newfoundland and Labrador","CommoditiesEN":"High-purity iron ore","DevelopmentStageEN":"Advanced project","ActivityStatusEN":"Active","OperationGroupEN":"Advanced exploration project","Website":"https://redparamount.ca","name":"Lac Virot"}},{"type":"Feature","geometry":{"type":"Point","coordinates":[-66.9122198544733,52.918070527359596]},"properties":{"PropertyNameEN":"Scully Mine - Manganese project","OperatorOwnersEN":"Tacora Resources Inc.","ProvincesEN":"Newfoundland and Labrador","CommoditiesEN":"Manganese","DevelopmentStageEN":"Advanced unconventional project","ActivityStatusEN":"Active","OperationGroupEN":"Advanced processing project","Website":"https://www.tacoraresources.com","name":"Scully Mine - Manganese project"}},{"type":"Feature","geometry":{"type":"Point","coordinates":[-55.195995355020074,48.71591908374301]},"properties":{"PropertyNameEN":"Beaver Brook","OperatorOwnersEN":"Hunan Nonferrous Metals Corporation Limited","ProvincesEN":"Newfoundland and Labrador","CommoditiesEN":"Antimony","DevelopmentStageEN":"Past producer","ActivityStatusEN":"On hold / suspended","OperationGroupEN":"Mines and other primary producing sites","Website":"Not available/Pas disponible","name":"Beaver Brook"}},{"type":"Feature","geometry":{"type":"Point","coordinates":[-55.40029541523629,46.90380978904766]},"properties":{"PropertyNameEN":"St. Lawrence Fluorspar","OperatorOwnersEN":"AMED Funds (Fluorspar Holdings PTE Ltd.)","ProvincesEN":"Newfoundland and Labrador","CommoditiesEN":"Fluorspar","DevelopmentStageEN":"Past producer","ActivityStatusEN":"On hold / suspended","OperationGroupEN":"Mines and other primary producing sites","Website":"https://canadafluorspar.ca/","name":"St. Lawrence Fluorspar"}},{"type":"Feature","geometry":{"type":"Point","coordinates":[-62.09085318686501,56.33167006941708]},"properties":{"PropertyNameEN":"Voisey’s Bay","OperatorOwnersEN":"Vale S.A. ","ProvincesEN":"Newfoundland and Labrador","CommoditiesEN":"Nickel, copper, cobalt","DevelopmentStageEN":"Mine","ActivityStatusEN":"Active","OperationGroupEN":"Mines and other primary producing sites","Website":"https://vale.com/canada","name":"Voisey’s Bay"}},{"type":"Feature","geometry":{"type":"Point","coordinates":[-66.89276984907093,52.95873053291213]},"properties":{"PropertyNameEN":"Carol Lake","OperatorOwnersEN":"Iron Ore Company of Canada Inc.","ProvincesEN":"Newfoundland and Labrador","CommoditiesEN":"High-purity iron ore","DevelopmentStageEN":"Mine","ActivityStatusEN":"Active","OperationGroupEN":"Mines and other primary producing sites","Website":"https://www.riotinto.com","name":"Carol Lake"}},{"type":"Feature","geometry":{"type":"Point","coordinates":[-53.81178685832849,47.41094787583174]},"properties":{"PropertyNameEN":"Long Harbour","OperatorOwnersEN":"Vale S.A. ","ProvincesEN":"Newfoundland and Labrador","CommoditiesEN":"Nickel, copper, cobalt","DevelopmentStageEN":"Refinery","ActivityStatusEN":"Active","OperationGroupEN":"Processing","Website":"https://vale.com/canada","name":"Long Harbour"}}]}